[{"results": [{"fsq_id": "628f3fb0f6e50f2be3a6711b", "categories": [{"id": 13035, "name": "Coffee Shop", "short_name": "Coffee Shop", "plural_name": "Coffee Shops", "icon": {"prefix": "https://ss3.4sqi.net/img/categories_v2/food/coffeeshop_", "suffix": ".png"}}, {"id": 17063, "name": "Coffee Roaster", "short_name": "Coffee Roaster", "plural_name": "Coffee Roasters", "icon": {"prefix": "https://ss3.4sqi.net/img/categories_v2/shops/food_gourmet_", "suffix": ".png"}}], "chains": [], "closed_bucket": "LikelyOpen", "distance": 411, "geocodes": {"main": {"latitude": 48.867361, "longitude": 2.280951}}, "link": "/v3/places/628f3fb0f6e50f2be3a6711b", "location": {"address": "32 Rue Gustave Courbet", "admin_region": "\u00cele-de-France", "country": "FR", "cross_street": "", "formatted_address": "32 Rue Gustave Courbet, 75116 Paris", "locality": "Paris", "postcode": "75116", "region": "\u00cele-de-France"}, "name": "Noir - Coffee Shop & Torr\u00e9facteur", "related_places": {}, "timezone": "Europe/Paris"}, {"fsq_id": "4b77f147f964a52097af2ee3", "categories": [{"id": 13013, "name": "Hotel Bar", "short_name": "Hotel Bar", "plural_name": "Hotel Bars", "icon": {"prefix": "https://ss3.4sqi.net/img/categories_v2/travel/hotel_bar_", "suffix": ".png"}}], "chains": [], "closed_bucket": "LikelyOpen", "distance": 582, "geocodes": {"main": {"latitude": 48.870401, "longitude": 2.279922}, "roof": {"latitude": 48.870401, "longitude": 2.279922}}, "link": "/v3/places/4b77f147f964a52097af2ee3", "location": {"address": "43 avenue Bugeaud", "admin_region": "\u00cele-de-France", "country": "FR", "formatted_address": "43 avenue Bugeaud, 75116 Paris", "locality": "Paris", "postcode": "75116", "region": "\u00cele-de-France"}, "name": "Saint-James Club", "related_places": {"parent": {"fsq_id": "4bf0e73e6f8aa5933c5fc23c", "categories": [{"id": 19014, "name": "Hotel", "short_name": "Hotel", "plural_name": "Hotels", "icon": {"prefix": "https://ss3.4sqi.net/img/categories_v2/travel/hotel_", "suffix": ".png"}}], "name": "Saint James Paris"}}, "timezone": "Europe/Paris"}, {"fsq_id": "4bd2d23541b9ef3bdabcfee5", "categories": [{"id": 13002, "name": "Bakery", "short_name": "Bakery", "plural_name": "Bakeries", "icon": {"prefix": "https://ss3.4sqi.net/img/categories_v2/food/bakery_", "suffix": ".png"}}, {"id": 13032, "name": "Cafe, Coffee, and Tea House", "short_name": "Cafe, Coffee, and Tea House", "plural_name": "Cafes, Coffee, and Tea Houses", "icon": {"prefix": "https://ss3.4sqi.net/img/categories_v2/food/coffeeshop_", "suffix": ".png"}}, {"id": 13065, "name": "Restaurant", "short_name": "Restaurant", "plural_name": "Restaurants", "icon": {"prefix": "https://ss3.4sqi.net/img/categories_v2/food/default_", "suffix": ".png"}}], "chains": [], "closed_bucket": "LikelyOpen", "distance": 487, "geocodes": {"main": {"latitude": 48.868176, "longitude": 2.281501}, "roof": {"latitude": 48.868176, "longitude": 2.281501}}, "link": "/v3/places/4bd2d23541b9ef3bdabcfee5", "location": {"address": "118 avenue Victor Hugo", "admin_region": "\u00cele-de-France", "country": "FR", "formatted_address": "118 avenue Victor Hugo, 75016 Paris", "locality": "Paris", "postcode": "75016", "region": "\u00cele-de-France"}, "name": "B\u00e9chu", "related_places": {}, "timezone": "Europe/Paris"}, {"fsq_id": "5bf2afc17e210b0025f5f0ed", "categories": [{"id": 13065, "name": "Restaurant", "short_name": "Restaurant", "plural_name": "Restaurants", "icon": {"prefix": "https://ss3.4sqi.net/img/categories_v2/food/default_", "suffix": ".png"}}], "chains": [], "closed_bucket": "LikelyOpen", "distance": 528, "geocodes": {"main": {"latitude": 48.861246, "longitude": 2.275068}}, "link": "/v3/places/5bf2afc17e210b0025f5f0ed", "location": {"address": "H\u00f4tel Brach", "admin_region": "\u00cele-de-France", "country": "FR", "cross_street": "1-7 rue Jean Richepin", "formatted_address": "H\u00f4tel Brach (1-7 rue Jean Richepin), 75116 Paris", "locality": "Paris", "postcode": "75116", "region": "\u00cele-de-France"}, "name": "Restaurant Brach", "related_places": {"parent": {"fsq_id": "5bd97fb41fa763002cbcf8ba", "categories": [{"id": 19014, "name": "Hotel", "short_name": "Hotel", "plural_name": "Hotels", "icon": {"prefix": "https://ss3.4sqi.net/img/categories_v2/travel/hotel_", "suffix": ".png"}}], "name": "Brach Paris"}}, "timezone": "Europe/Paris"}, {"fsq_id": "4b1ff559f964a520592b24e3", "categories": [{"id": 13057, "name": "Gastropub", "short_name": "Gastropub", "plural_name": "Gastropubs", "icon": {"prefix": "https://ss3.4sqi.net/img/categories_v2/food/gastropub_", "suffix": ".png"}}, {"id": 13152, "name": "Brasserie", "short_name": "Brasserie", "plural_name": "Brasseries", "icon": {"prefix": "https://ss3.4sqi.net/img/categories_v2/food/french_", "suffix": ".png"}}], "chains": [], "closed_bucket": "VeryLikelyOpen", "distance": 324, "geocodes": {"main": {"latitude": 48.864248, "longitude": 2.272152}, "roof": {"latitude": 48.864248, "longitude": 2.272152}}, "link": "/v3/places/4b1ff559f964a520592b24e3", "location": {"address": "4 place Tattegrain", "admin_region": "\u00cele-de-France", "country": "FR", "formatted_address": "4 place Tattegrain, 75116 Paris", "locality": "Paris", "postcode": "75116", "region": "\u00cele-de-France"}, "name": "Le Flandrin", "related_places": {}, "timezone": "Europe/Paris"}, {"fsq_id": "5ff3069fb907b733a9252835", "categories": [{"id": 13000, "name": "Dining and Drinking", "short_name": "Dining and Drinking", "plural_name": "Dining and Drinking", "icon": {"prefix": "https://ss3.4sqi.net/img/categories_v2/food/default_", "suffix": ".png"}}], "chains": [], "closed_bucket": "LikelyOpen", "distance": 687, "geocodes": {"drop_off": {"latitude": 48.869055, "longitude": 2.283903}, "main": {"latitude": 48.869199, "longitude": 2.283842}, "roof": {"latitude": 48.869199, "longitude": 2.283842}}, "link": "/v3/places/5ff3069fb907b733a9252835", "location": {"address": "92 avenue Victor Hugo", "admin_region": "\u00cele-de-France", "country": "FR", "cross_street": "", "formatted_address": "92 avenue Victor Hugo, 75116 Paris", "locality": "Paris", "postcode": "75116", "region": "\u00cele-de-France"}, "name": "Joe & The Juice", "related_places": {}, "timezone": "Europe/Paris"}, {"fsq_id": "4b536e89f964a520b19c27e3", "categories": [{"id": 13148, "name": "French Restaurant", "short_name": "French", "plural_name": "French Restaurants", "icon": {"prefix": "https://ss3.4sqi.net/img/categories_v2/food/french_", "suffix": ".png"}}, {"id": 13263, "name": "Japanese Restaurant", "short_name": "Japanese", "plural_name": "Japanese Restaurants", "icon": {"prefix": "https://ss3.4sqi.net/img/categories_v2/food/japanese_", "suffix": ".png"}}], "chains": [], "closed_bucket": "VeryLikelyOpen", "distance": 638, "geocodes": {"drop_off": {"latitude": 48.860206, "longitude": 2.27506}, "main": {"latitude": 48.860163, "longitude": 2.27493}, "roof": {"latitude": 48.860163, "longitude": 2.27493}}, "link": "/v3/places/4b536e89f964a520b19c27e3", "location": {"address": "25 rue de la Pompe", "admin_region": "\u00cele-de-France", "country": "FR", "formatted_address": "25 rue de la Pompe, 75116 Paris", "locality": "Paris", "postcode": "75116", "region": "\u00cele-de-France"}, "name": "Bon", "related_places": {}, "timezone": "Europe/Paris"}, {"fsq_id": "4b2a27d0f964a520a0a524e3", "categories": [{"id": 13064, "name": "Pizzeria", "short_name": "Pizza", "plural_name": "Pizzerias", "icon": {"prefix": "https://ss3.4sqi.net/img/categories_v2/food/pizza_", "suffix": ".png"}}, {"id": 13236, "name": "Italian Restaurant", "short_name": "Italian", "plural_name": "Italian Restaurants", "icon": {"prefix": "https://ss3.4sqi.net/img/categories_v2/food/italian_", "suffix": ".png"}}], "chains": [], "closed_bucket": "LikelyOpen", "distance": 493, "geocodes": {"drop_off": {"latitude": 48.866464, "longitude": 2.282391}, "main": {"latitude": 48.866582, "longitude": 2.282516}, "roof": {"latitude": 48.866582, "longitude": 2.282516}}, "link": "/v3/places/4b2a27d0f964a520a0a524e3", "location": {"address": "18 rue des Belles Feuilles", "admin_region": "\u00cele-de-France", "country": "FR", "cross_street": "", "formatted_address": "18 rue des Belles Feuilles, 75116 Paris", "locality": "Paris", "postcode": "75116", "region": "\u00cele-de-France"}, "name": "Le Paris 16", "related_places": {}, "timezone": "Europe/Paris"}, {"fsq_id": "4bf54e03ff90c9b68b2d5628", "categories": [{"id": 13027, "name": "Bistro", "short_name": "Bistro", "plural_name": "Bistros", "icon": {"prefix": "https://ss3.4sqi.net/img/categories_v2/food/default_", "suffix": ".png"}}, {"id": 13064, "name": "Pizzeria", "short_name": "Pizza", "plural_name": "Pizzerias", "icon": {"prefix": "https://ss3.4sqi.net/img/categories_v2/food/pizza_", "suffix": ".png"}}, {"id": 13148, "name": "French Restaurant", "short_name": "French", "plural_name": "French Restaurants", "icon": {"prefix": "https://ss3.4sqi.net/img/categories_v2/food/french_", "suffix": ".png"}}], "chains": [], "closed_bucket": "LikelyOpen", "distance": 736, "geocodes": {"drop_off": {"latitude": 48.868816, "longitude": 2.284761}, "main": {"latitude": 48.86875, "longitude": 2.284861}, "roof": {"latitude": 48.86875, "longitude": 2.284861}}, "link": "/v3/places/4bf54e03ff90c9b68b2d5628", "location": {"address": "5 rue Mesnil, 16e", "admin_region": "\u00cele-de-France", "country": "FR", "formatted_address": "5 rue Mesnil, 16e, 75116 Paris", "locality": "Paris", "postcode": "75116", "region": "\u00cele-de-France"}, "name": "Le Petit R\u00e9tro", "related_places": {}, "timezone": "Europe/Paris"}, {"fsq_id": "4d59643f296d5481838b58b1", "categories": [{"id": 13031, "name": "Burger Joint", "short_name": "Burgers", "plural_name": "Burger Joints", "icon": {"prefix": "https://ss3.4sqi.net/img/categories_v2/food/burger_", "suffix": ".png"}}, {"id": 13039, "name": "Deli", "short_name": "Deli", "plural_name": "Delis", "icon": {"prefix": "https://ss3.4sqi.net/img/categories_v2/food/deli_", "suffix": ".png"}}, {"id": 13068, "name": "American Restaurant", "short_name": "American", "plural_name": "American Restaurants", "icon": {"prefix": "https://ss3.4sqi.net/img/categories_v2/food/default_", "suffix": ".png"}}], "chains": [], "closed_bucket": "VeryLikelyOpen", "distance": 765, "geocodes": {"main": {"latitude": 48.863709, "longitude": 2.285596}, "roof": {"latitude": 48.863709, "longitude": 2.285596}}, "link": "/v3/places/4d59643f296d5481838b58b1", "location": {"address": "7 avenue d'Eylau", "admin_region": "\u00cele-de-France", "country": "FR", "formatted_address": "7 avenue d'Eylau, 75016 Paris", "locality": "Paris", "postcode": "75016", "region": "\u00cele-de-France"}, "name": "Schwartz's", "related_places": {}, "timezone": "Europe/Paris"}], "context": {"geo_bounds": {"circle": {"center": {"latitude": 48.865983, "longitude": 2.275725}, "radius": 1000}}}}, {"results": [{"fsq_id": "58a58562ef787f21708c9ea0", "categories": [{"id": 13006, "name": "Beer Bar", "short_name": "Beer Bar", "plural_name": "Beer Bars", "icon": {"prefix": "https://ss3.4sqi.net/img/categories_v2/nightlife/pub_", "suffix": ".png"}}, {"id": 13035, "name": "Coffee Shop", "short_name": "Coffee Shop", "plural_name": "Coffee Shops", "icon": {"prefix": "https://ss3.4sqi.net/img/categories_v2/food/coffeeshop_", "suffix": ".png"}}, {"id": 13065, "name": "Restaurant", "short_name": "Restaurant", "plural_name": "Restaurants", "icon": {"prefix": "https://ss3.4sqi.net/img/categories_v2/food/default_", "suffix": ".png"}}], "chains": [], "closed_bucket": "VeryLikelyOpen", "distance": 236, "geocodes": {"drop_off": {"latitude": 48.851589, "longitude": 2.339037}, "main": {"latitude": 48.851665, "longitude": 2.339128}, "roof": {"latitude": 48.851665, "longitude": 2.339128}}, "link": "/v3/places/58a58562ef787f21708c9ea0", "location": {"address": "3 rue Monsieur le Prince", "admin_region": "\u00cele-de-France", "country": "FR", "cross_street": "", "formatted_address": "3 rue Monsieur le Prince, 75006 Paris", "locality": "Paris", "postcode": "75006", "region": "\u00cele-de-France"}, "name": "La Robe & la Mousse", "related_places": {}, "timezone": "Europe/Paris"}, {"fsq_id": "56fcf8cf498e3f03ae3989b4", "categories": [{"id": 13272, "name": "Ramen Restaurant", "short_name": "Ramen", "plural_name": "Ramen Restaurants", "icon": {"prefix": "https://ss3.4sqi.net/img/categories_v2/food/ramen_", "suffix": ".png"}}], "chains": [], "closed_bucket": "LikelyOpen", "distance": 123, "geocodes": {"drop_off": {"latitude": 48.854573, "longitude": 2.338027}, "main": {"latitude": 48.854624, "longitude": 2.338169}, "roof": {"latitude": 48.854624, "longitude": 2.338169}}, "link": "/v3/places/56fcf8cf498e3f03ae3989b4", "location": {"address": "29 rue Mazarine", "admin_region": "\u00cele-de-France", "country": "FR", "cross_street": "", "formatted_address": "29 rue Mazarine, 75006 Paris", "locality": "Paris", "postcode": "75006", "region": "\u00cele-de-France"}, "name": "Kodawari Ramen", "related_places": {}, "timezone": "Europe/Paris"}, {"fsq_id": "583491ed6c682b6191d2a6ae", "categories": [{"id": 13027, "name": "Bistro", "short_name": "Bistro", "plural_name": "Bistros", "icon": {"prefix": "https://ss3.4sqi.net/img/categories_v2/food/default_", "suffix": ".png"}}, {"id": 13148, "name": "French Restaurant", "short_name": "French", "plural_name": "French Restaurants", "icon": {"prefix": "https://ss3.4sqi.net/img/categories_v2/food/french_", "suffix": ".png"}}, {"id": 13347, "name": "Tapas Restaurant", "short_name": "Tapas", "plural_name": "Tapas Restaurants", "icon": {"prefix": "https://ss3.4sqi.net/img/categories_v2/food/tapas_", "suffix": ".png"}}], "chains": [], "closed_bucket": "LikelyOpen", "distance": 346, "geocodes": {"main": {"latitude": 48.851734, "longitude": 2.335472}, "roof": {"latitude": 48.851734, "longitude": 2.335472}}, "link": "/v3/places/583491ed6c682b6191d2a6ae", "location": {"address": "15 rue Lobineau, 6e", "admin_region": "\u00cele-de-France", "country": "FR", "cross_street": "March\u00e9 Saint-Germain", "formatted_address": "15 rue Lobineau, 6e (March\u00e9 Saint-Germain), 75006 Paris", "locality": "Paris", "postcode": "75006", "region": "\u00cele-de-France"}, "name": "L'Avant Comptoir du March\u00e9", "related_places": {"parent": {"fsq_id": "4af5a497f964a520b9fa21e3", "categories": [{"id": 13065, "name": "Restaurant", "short_name": "Restaurant", "plural_name": "Restaurants", "icon": {"prefix": "https://ss3.4sqi.net/img/categories_v2/food/default_", "suffix": ".png"}}], "name": "March\u00e9 Saint-Germain"}}, "timezone": "Europe/Paris"}, {"fsq_id": "4adcda0ef964a520353521e3", "categories": [{"id": 10027, "name": "Museum", "short_name": "Museum", "plural_name": "Museums", "icon": {"prefix": "https://ss3.4sqi.net/img/categories_v2/arts_entertainment/museum_", "suffix": ".png"}}], "chains": [], "closed_bucket": "VeryLikelyOpen", "distance": 342, "geocodes": {"main": {"latitude": 48.856681, "longitude": 2.339158}, "roof": {"latitude": 48.856681, "longitude": 2.339158}}, "link": "/v3/places/4adcda0ef964a520353521e3", "location": {"address": "11 quai de Conti, 6e", "admin_region": "\u00cele-de-France", "country": "FR", "formatted_address": "11 quai de Conti, 6e, 75006 Paris", "locality": "Paris", "postcode": "75006", "region": "\u00cele-de-France"}, "name": "Monnaie de Paris", "related_places": {"children": [{"fsq_id": "5540b49d498e84ce71f6b0ce", "categories": [{"id": 13139, "name": "Eastern European Restaurant", "short_name": "Eastern European", "plural_name": "Eastern European Restaurants", "icon": {"prefix": "https://ss3.4sqi.net/img/categories_v2/food/default_", "suffix": ".png"}}, {"id": 13148, "name": "French Restaurant", "short_name": "French", "plural_name": "French Restaurants", "icon": {"prefix": "https://ss3.4sqi.net/img/categories_v2/food/french_", "suffix": ".png"}}], "name": "Restaurant Guy Savoy"}, {"fsq_id": "5abd0d073fcee827975e2fd7", "categories": [{"id": 10027, "name": "Museum", "short_name": "Museum", "plural_name": "Museums", "icon": {"prefix": "https://ss3.4sqi.net/img/categories_v2/arts_entertainment/museum_", "suffix": ".png"}}], "name": "Mus\u00e9e de la Monnaie de Paris"}]}, "timezone": "Europe/Paris"}, {"fsq_id": "5540b49d498e84ce71f6b0ce", "categories": [{"id": 13139, "name": "Eastern European Restaurant", "short_name": "Eastern European", "plural_name": "Eastern European Restaurants", "icon": {"prefix": "https://ss3.4sqi.net/img/categories_v2/food/default_", "suffix": ".png"}}, {"id": 13148, "name": "French Restaurant", "short_name": "French", "plural_name": "French Restaurants", "icon": {"prefix": "https://ss3.4sqi.net/img/categories_v2/food/french_", "suffix": ".png"}}], "chains": [], "closed_bucket": "VeryLikelyOpen", "distance": 370, "geocodes": {"main": {"latitude": 48.856939, "longitude": 2.338798}, "roof": {"latitude": 48.856939, "longitude": 2.338798}}, "link": "/v3/places/5540b49d498e84ce71f6b0ce", "location": {"address": "11 quai de Conti, 6e", "admin_region": "\u00cele-de-France", "country": "FR", "cross_street": "Monnaie de Paris", "formatted_address": "11 quai de Conti, 6e (Monnaie de Paris), 75006 Paris", "locality": "Paris", "postcode": "75006", "region": "\u00cele-de-France"}, "name": "Restaurant Guy Savoy", "related_places": {"parent": {"fsq_id": "4adcda0ef964a520353521e3", "categories": [{"id": 10027, "name": "Museum", "short_name": "Museum", "plural_name": "Museums", "icon": {"prefix": "https://ss3.4sqi.net/img/categories_v2/arts_entertainment/museum_", "suffix": ".png"}}], "name": "Monnaie de Paris"}}, "timezone": "Europe/Paris"}, {"fsq_id": "4adcda14f964a520f93621e3", "categories": [{"id": 13152, "name": "Brasserie", "short_name": "Brasserie", "plural_name": "Brasseries", "icon": {"prefix": "https://ss3.4sqi.net/img/categories_v2/food/french_", "suffix": ".png"}}], "chains": [], "closed_bucket": "VeryLikelyOpen", "distance": 87, "geocodes": {"drop_off": {"latitude": 48.853017, "longitude": 2.338652}, "main": {"latitude": 48.853068, "longitude": 2.338774}, "roof": {"latitude": 48.853068, "longitude": 2.338774}}, "link": "/v3/places/4adcda14f964a520f93621e3", "location": {"address": "13 rue de l'Ancienne Com\u00e9die, 6e", "admin_region": "\u00cele-de-France", "country": "FR", "formatted_address": "13 rue de l'Ancienne Com\u00e9die, 6e, 75006 Paris", "locality": "Paris", "postcode": "75006", "region": "\u00cele-de-France"}, "name": "Le Procope", "related_places": {}, "timezone": "Europe/Paris"}, {"fsq_id": "578a2e9f498e1129b45bb0db", "categories": [{"id": 13031, "name": "Burger Joint", "short_name": "Burgers", "plural_name": "Burger Joints", "icon": {"prefix": "https://ss3.4sqi.net/img/categories_v2/food/burger_", "suffix": ".png"}}, {"id": 13072, "name": "Asian Restaurant", "short_name": "Asian", "plural_name": "Asian Restaurants", "icon": {"prefix": "https://ss3.4sqi.net/img/categories_v2/food/asian_", "suffix": ".png"}}], "chains": [], "closed_bucket": "VeryLikelyOpen", "distance": 455, "geocodes": {"drop_off": {"latitude": 48.853483, "longitude": 2.345339}, "main": {"latitude": 48.853333, "longitude": 2.3453}, "roof": {"latitude": 48.853333, "longitude": 2.3453}}, "link": "/v3/places/578a2e9f498e1129b45bb0db", "location": {"address": "21 quai Saint Michel", "admin_region": "\u00cele-de-France", "country": "FR", "cross_street": "", "formatted_address": "21 quai Saint Michel, 75005 Paris", "locality": "Paris", "postcode": "75005", "region": "\u00cele-de-France"}, "name": "Shiso Burger", "related_places": {}, "timezone": "Europe/Paris"}, {"fsq_id": "543b0484498e299b6070b8b1", "categories": [{"id": 10027, "name": "Museum", "short_name": "Museum", "plural_name": "Museums", "icon": {"prefix": "https://ss3.4sqi.net/img/categories_v2/arts_entertainment/museum_", "suffix": ".png"}}, {"id": 16016, "name": "Fountain", "short_name": "Fountain", "plural_name": "Fountains", "icon": {"prefix": "https://ss3.4sqi.net/img/categories_v2/parks_outdoors/plaza_", "suffix": ".png"}}], "chains": [], "closed_bucket": "VeryLikelyOpen", "distance": 345, "geocodes": {"main": {"latitude": 48.853229, "longitude": 2.343787}}, "link": "/v3/places/543b0484498e299b6070b8b1", "location": {"address": "7B place Saint-Michel", "admin_region": "\u00cele-de-France", "country": "FR", "cross_street": "", "formatted_address": "7B place Saint-Michel, 75006 Paris", "locality": "Paris", "postcode": "75006", "region": "\u00cele-de-France"}, "name": "Fontaine Saint-Michel", "related_places": {"parent": {"fsq_id": "4b530766f964a520f88c27e3", "categories": [{"id": 16000, "name": "Landmarks and Outdoors", "short_name": "Landmarks and Outdoors", "plural_name": "Landmarks and Outdoors", "icon": {"prefix": "https://ss3.4sqi.net/img/categories_v2/parks_outdoors/default_", "suffix": ".png"}}], "name": "Place Saint-Michel"}}, "timezone": "Europe/Paris"}, {"fsq_id": "4adcda04f964a520273221e3", "categories": [{"id": 13035, "name": "Coffee Shop", "short_name": "Coffee Shop", "plural_name": "Coffee Shops", "icon": {"prefix": "https://ss3.4sqi.net/img/categories_v2/food/coffeeshop_", "suffix": ".png"}}, {"id": 13049, "name": "Diner", "short_name": "Diner", "plural_name": "Diners", "icon": {"prefix": "https://ss3.4sqi.net/img/categories_v2/food/diner_", "suffix": ".png"}}, {"id": 13152, "name": "Brasserie", "short_name": "Brasserie", "plural_name": "Brasseries", "icon": {"prefix": "https://ss3.4sqi.net/img/categories_v2/food/french_", "suffix": ".png"}}], "chains": [], "closed_bucket": "VeryLikelyOpen", "distance": 434, "geocodes": {"main": {"latitude": 48.854092, "longitude": 2.333115}, "roof": {"latitude": 48.854092, "longitude": 2.333115}}, "link": "/v3/places/4adcda04f964a520273221e3", "location": {"address": "6 place Saint-Germain des Pr\u00e9s", "admin_region": "\u00cele-de-France", "country": "FR", "formatted_address": "6 place Saint-Germain des Pr\u00e9s, 75006 Paris", "locality": "Paris", "postcode": "75006", "region": "\u00cele-de-France"}, "name": "Les Deux Magots", "related_places": {"children": []}, "timezone": "Europe/Paris"}, {"fsq_id": "5864efb745c3ed1e7d88e96d", "categories": [{"id": 10016, "name": "Exhibit", "short_name": "Exhibit", "plural_name": "Exhibits", "icon": {"prefix": "https://ss3.4sqi.net/img/categories_v2/arts_entertainment/default_", "suffix": ".png"}}], "chains": [], "closed_bucket": "LikelyOpen", "distance": 693, "geocodes": {"main": {"latitude": 48.85988, "longitude": 2.337304}}, "link": "/v3/places/5864efb745c3ed1e7d88e96d", "location": {"address": "Mus\u00e9e du Louvre", "admin_region": "\u00cele-de-France", "country": "FR", "cross_street": "Aile Sully, rdc, salle 346", "formatted_address": "Mus\u00e9e du Louvre (Aile Sully, rdc, salle 346), 75001 Paris", "locality": "Paris", "postcode": "75001", "region": "\u00cele-de-France"}, "name": "Venus of Milo (V\u00e9nus de Milo)", "related_places": {"parent": {"fsq_id": "4adcda10f964a520af3521e3", "categories": [{"id": 10027, "name": "Museum", "short_name": "Museum", "plural_name": "Museums", "icon": {"prefix": "https://ss3.4sqi.net/img/categories_v2/arts_entertainment/museum_", "suffix": ".png"}}], "name": "Mus\u00e9e du Louvre"}}, "timezone": "Europe/Paris"}], "context": {"geo_bounds": {"circle": {"center": {"latitude": 48.85375581057431, "longitude": 2.3390958085656166}, "radius": 1000}}}}, {"results": [{"fsq_id": "569fba0b498ef67c91928bba", "categories": [{"id": 13027, "name": "Bistro", "short_name": "Bistro", "plural_name": "Bistros", "icon": {"prefix": "https://ss3.4sqi.net/img/categories_v2/food/default_", "suffix": ".png"}}, {"id": 13036, "name": "Tea Room", "short_name": "Tea Room", "plural_name": "Tea Rooms", "icon": {"prefix": "https://ss3.4sqi.net/img/categories_v2/food/tearoom_", "suffix": ".png"}}, {"id": 13039, "name": "Deli", "short_name": "Deli", "plural_name": "Delis", "icon": {"prefix": "https://ss3.4sqi.net/img/categories_v2/food/deli_", "suffix": ".png"}}], "chains": [], "closed_bucket": "LikelyOpen", "distance": 178, "geocodes": {"main": {"latitude": 48.866556, "longitude": 2.363642}, "roof": {"latitude": 48.866556, "longitude": 2.363642}}, "link": "/v3/places/569fba0b498ef67c91928bba", "location": {"address": "22 rue B\u00e9ranger", "admin_region": "\u00cele-de-France", "country": "FR", "cross_street": "", "formatted_address": "22 rue B\u00e9ranger, 75003 Paris", "locality": "Paris", "postcode": "75003", "region": "\u00cele-de-France"}, "name": "Umami Matcha Caf\u00e9", "related_places": {}, "timezone": "Europe/Paris"}, {"fsq_id": "5c9b4f45234724002c878029", "categories": [{"id": 13152, "name": "Brasserie", "short_name": "Brasserie", "plural_name": "Brasseries", "icon": {"prefix": "https://ss3.4sqi.net/img/categories_v2/food/french_", "suffix": ".png"}}], "chains": [], "closed_bucket": "LikelyOpen", "distance": 199, "geocodes": {"drop_off": {"latitude": 48.866191, "longitude": 2.364873}, "main": {"latitude": 48.86605, "longitude": 2.364626}, "roof": {"latitude": 48.86605, "longitude": 2.364626}}, "link": "/v3/places/5c9b4f45234724002c878029", "location": {"address": "39 boulevard du Temple", "admin_region": "\u00cele-de-France", "country": "FR", "cross_street": "", "formatted_address": "39 boulevard du Temple, 75003 Paris", "locality": "Paris", "postcode": "75003", "region": "\u00cele-de-France"}, "name": "Bouillon R\u00e9publique", "related_places": {}, "timezone": "Europe/Paris"}, {"fsq_id": "54fc65f3498e7f86ee38def9", "categories": [{"id": 13002, "name": "Bakery", "short_name": "Bakery", "plural_name": "Bakeries", "icon": {"prefix": "https://ss3.4sqi.net/img/categories_v2/food/bakery_", "suffix": ".png"}}], "chains": [], "closed_bucket": "VeryLikelyOpen", "distance": 397, "geocodes": {"drop_off": {"latitude": 48.865422, "longitude": 2.36869}, "main": {"latitude": 48.865289, "longitude": 2.368724}, "roof": {"latitude": 48.865289, "longitude": 2.368724}}, "link": "/v3/places/54fc65f3498e7f86ee38def9", "location": {"address": "20 rue Jean Pierre Timbaud", "admin_region": "\u00cele-de-France", "country": "FR", "cross_street": "", "formatted_address": "20 rue Jean Pierre Timbaud, 75011 Paris", "locality": "Paris", "postcode": "75011", "region": "\u00cele-de-France"}, "name": "Boulangerie Utopie", "related_places": {}, "timezone": "Europe/Paris"}, {"fsq_id": "4b5eec5df964a520129e29e3", "categories": [{"id": 13002, "name": "Bakery", "short_name": "Bakery", "plural_name": "Bakeries", "icon": {"prefix": "https://ss3.4sqi.net/img/categories_v2/food/bakery_", "suffix": ".png"}}, {"id": 13065, "name": "Restaurant", "short_name": "Restaurant", "plural_name": "Restaurants", "icon": {"prefix": "https://ss3.4sqi.net/img/categories_v2/food/default_", "suffix": ".png"}}], "chains": [], "closed_bucket": "LikelyOpen", "distance": 402, "geocodes": {"main": {"latitude": 48.871214, "longitude": 2.362942}, "roof": {"latitude": 48.871214, "longitude": 2.362942}}, "link": "/v3/places/4b5eec5df964a520129e29e3", "location": {"address": "34 rue Yves Toudic, 10e", "admin_region": "\u00cele-de-France", "country": "FR", "formatted_address": "34 rue Yves Toudic, 10e, 75010 Paris", "locality": "Paris", "postcode": "75010", "region": "\u00cele-de-France"}, "name": "Du Pain et des Id\u00e9es", "related_places": {}, "timezone": "Europe/Paris"}, {"fsq_id": "4b9265fcf964a520bbf633e3", "categories": [{"id": 13148, "name": "French Restaurant", "short_name": "French", "plural_name": "French Restaurants", "icon": {"prefix": "https://ss3.4sqi.net/img/categories_v2/food/french_", "suffix": ".png"}}], "chains": [], "closed_bucket": "VeryLikelyOpen", "distance": 373, "geocodes": {"main": {"latitude": 48.864469, "longitude": 2.364613}, "roof": {"latitude": 48.864469, "longitude": 2.364613}}, "link": "/v3/places/4b9265fcf964a520bbf633e3", "location": {"address": "133 rue de Turenne, 3e", "admin_region": "\u00cele-de-France", "country": "FR", "formatted_address": "133 rue de Turenne, 3e, 75003 Paris", "locality": "Paris", "postcode": "75003", "region": "\u00cele-de-France"}, "name": "La Chocolaterie de Jacques Genin", "related_places": {}, "timezone": "Europe/Paris"}, {"fsq_id": "5079f1e0e4b0eb8b83f90b0d", "categories": [{"id": 13009, "name": "Cocktail Bar", "short_name": "Cocktail", "plural_name": "Cocktail Bars", "icon": {"prefix": "https://ss3.4sqi.net/img/categories_v2/nightlife/cocktails_", "suffix": ".png"}}, {"id": 13021, "name": "Speakeasy", "short_name": "Speakeasy", "plural_name": "Speakeasies", "icon": {"prefix": "https://ss3.4sqi.net/img/categories_v2/nightlife/secretbar_", "suffix": ".png"}}, {"id": 13034, "name": "Caf\u00e9", "short_name": "Caf\u00e9", "plural_name": "Caf\u00e9s", "icon": {"prefix": "https://ss3.4sqi.net/img/categories_v2/food/cafe_", "suffix": ".png"}}], "chains": [], "closed_bucket": "LikelyOpen", "distance": 474, "geocodes": {"drop_off": {"latitude": 48.863779, "longitude": 2.363603}, "main": {"latitude": 48.863669, "longitude": 2.363698}, "roof": {"latitude": 48.863669, "longitude": 2.363698}}, "link": "/v3/places/5079f1e0e4b0eb8b83f90b0d", "location": {"address": "60 rue Charlot, Paris", "admin_region": "\u00cele-de-France", "country": "FR", "formatted_address": "60 rue Charlot, Paris, 75003 Paris", "locality": "Paris", "postcode": "75003", "region": "\u00cele-de-France"}, "name": "Little Red Door", "related_places": {}, "timezone": "Europe/Paris"}, {"fsq_id": "5947cb5065cdf86790d0155f", "categories": [{"id": 13000, "name": "Dining and Drinking", "short_name": "Dining and Drinking", "plural_name": "Dining and Drinking", "icon": {"prefix": "https://ss3.4sqi.net/img/categories_v2/food/default_", "suffix": ".png"}}], "chains": [], "closed_bucket": "LikelyOpen", "distance": 511, "geocodes": {"drop_off": {"latitude": 48.870927, "longitude": 2.35985}, "main": {"latitude": 48.87103, "longitude": 2.359733}, "roof": {"latitude": 48.87103, "longitude": 2.359733}}, "link": "/v3/places/5947cb5065cdf86790d0155f", "location": {"address": "19 rue Lucien Sampaix", "admin_region": "\u00cele-de-France", "country": "FR", "cross_street": "", "formatted_address": "19 rue Lucien Sampaix, 75010 Paris", "locality": "Paris", "postcode": "75010", "region": "\u00cele-de-France"}, "name": "Holybelly 5", "related_places": {}, "timezone": "Europe/Paris"}, {"fsq_id": "4af31753f964a52092ea21e3", "categories": [{"id": 13003, "name": "Bar", "short_name": "Bar", "plural_name": "Bars", "icon": {"prefix": "https://ss3.4sqi.net/img/categories_v2/nightlife/pub_", "suffix": ".png"}}], "chains": [], "closed_bucket": "LikelyOpen", "distance": 515, "geocodes": {"main": {"latitude": 48.872417, "longitude": 2.365373}}, "link": "/v3/places/4af31753f964a52092ea21e3", "location": {"address": "80-82 quai de Jemmapes", "admin_region": "\u00cele-de-France", "country": "FR", "formatted_address": "80-82 quai de Jemmapes, 75010 Paris", "locality": "Paris", "postcode": "75010", "region": "\u00cele-de-France"}, "name": "Le Comptoir G\u00e9n\u00e9ral", "related_places": {}, "timezone": "Europe/Paris"}, {"fsq_id": "4adcda15f964a520aa3721e3", "categories": [{"id": 10037, "name": "Concert Hall", "short_name": "Concert Hall", "plural_name": "Concert Halls", "icon": {"prefix": "https://ss3.4sqi.net/img/categories_v2/arts_entertainment/musicvenue_", "suffix": ".png"}}, {"id": 10039, "name": "Music Venue", "short_name": "Music Venue", "plural_name": "Music Venues", "icon": {"prefix": "https://ss3.4sqi.net/img/categories_v2/arts_entertainment/musicvenue_", "suffix": ".png"}}, {"id": 10043, "name": "Theater", "short_name": "Theater", "plural_name": "Theaters", "icon": {"prefix": "https://ss3.4sqi.net/img/categories_v2/arts_entertainment/performingarts_theater_", "suffix": ".png"}}], "chains": [], "closed_bucket": "VeryLikelyOpen", "distance": 282, "geocodes": {"main": {"latitude": 48.869194, "longitude": 2.368254}, "roof": {"latitude": 48.869194, "longitude": 2.368254}}, "link": "/v3/places/4adcda15f964a520aa3721e3", "location": {"address": "37 rue du Faubourg du Temple", "admin_region": "\u00cele-de-France", "country": "FR", "cross_street": "", "formatted_address": "37 rue du Faubourg du Temple, 75010 Paris", "locality": "Paris", "postcode": "75010", "region": "\u00cele-de-France"}, "name": "Palais des Glaces", "related_places": {"children": [{"fsq_id": "51e57fb1498ef13d477ee77d", "categories": [{"id": 10010, "name": "Comedy Club", "short_name": "Comedy Club", "plural_name": "Comedy Clubs", "icon": {"prefix": "https://ss3.4sqi.net/img/categories_v2/arts_entertainment/comedyclub_", "suffix": ".png"}}], "name": "Petit Palais des Glaces"}]}, "timezone": "Europe/Paris"}, {"fsq_id": "5581ba79498e2d654886dbad", "categories": [{"id": 13064, "name": "Pizzeria", "short_name": "Pizza", "plural_name": "Pizzerias", "icon": {"prefix": "https://ss3.4sqi.net/img/categories_v2/food/pizza_", "suffix": ".png"}}, {"id": 13258, "name": "Trattoria", "short_name": "Trattoria/Osteria", "plural_name": "Trattorias", "icon": {"prefix": "https://ss3.4sqi.net/img/categories_v2/food/italian_", "suffix": ".png"}}], "chains": [], "closed_bucket": "VeryLikelyOpen", "distance": 540, "geocodes": {"main": {"latitude": 48.864421, "longitude": 2.370176}, "roof": {"latitude": 48.864421, "longitude": 2.370176}}, "link": "/v3/places/5581ba79498e2d654886dbad", "location": {"address": "107 boulevard Richard Lenoir", "admin_region": "\u00cele-de-France", "country": "FR", "cross_street": "", "formatted_address": "107 boulevard Richard Lenoir, 75011 Paris", "locality": "Paris", "postcode": "75011", "region": "\u00cele-de-France"}, "name": "Ober Mamma", "related_places": {}, "timezone": "Europe/Paris"}], "context": {"geo_bounds": {"circle": {"center": {"latitude": 48.867872484749, "longitude": 2.3648982158072}, "radius": 1000}}}}]